[
  {
    "name": "stop name",
    "address": "nowhere",
    "exits": "1",
    "coordinates": [
      -53.395237,
      -32.025773
    ]
  },
  {
    "name": "stop name",
    "address": "nowhere",
    "exits": "1",
    "coordinates": [
      -53.086325,
      -32.238502
    ]
  },
  {
    "name": "stop name",
    "address": "nowhere",
    "exits": "1",
    "coordinates": [
      -52.357408,
      -31.756258
    ]
  },
  {
    "name": "stop name",
    "address": "nowhere",
    "exits": "1",
    "coordinates": [
      -53.395237,
      -32.025773
    ]
  },
  {
    "name": "stop name",
    "address": "nowhere",
    "exits": "1",
    "coordinates": [
      -52.821823,
      -31.861731
    ]
  },
  {
    "name": "stop name",
    "address": "nowhere",
    "exits": "1",
    "coordinates": [
      -52.357408,
      -31.756258
    ]
  },
  {
    "name": "stop name",
    "address": "nowhere",
    "exits": "1",
    "coordinates": [
      -54.106236,
      -31.331718
    ]
  },
  {
    "name": "stop name",
    "address": "nowhere",
    "exits": "1",
    "coordinates": [
      -53.38228,
      -31.578983
    ]
  },
  {
    "name": "stop name",
    "address": "nowhere",
    "exits": "1",
    "coordinates": [
      -52.357408,
      -31.756258
    ]
  },
  {
    "name": "stop name",
    "address": "nowhere",
    "exits": "1",
    "coordinates": [
      -54.106236,
      -31.331718
    ]
  },
  {
    "name": "stop name",
    "address": "nowhere",
    "exits": "1",
    "coordinates": [
      -53.104176,
      -31.448516
    ]
  },
  {
    "name": "stop name",
    "address": "nowhere",
    "exits": "1",
    "coordinates": [
      -54.106236,
      -31.331718
    ]
  },
  {
    "name": "stop name",
    "address": "nowhere",
    "exits": "1",
    "coordinates": [
      -52.821823,
      -31.861731
    ]
  },
  {
    "name": "stop name",
    "address": "nowhere",
    "exits": "1",
    "coordinates": [
      -53.086325,
      -32.238502
    ]
  },
  {
    "name": "stop name",
    "address": "nowhere",
    "exits": "1",
    "coordinates": [
      -53.376976,
      -32.566474
    ]
  },
  {
    "name": "stop name",
    "address": "nowhere",
    "exits": "1",
    "coordinates": [
      -53.086325,
      -32.238502
    ]
  },
  {
    "name": "stop name",
    "address": "nowhere",
    "exits": "1",
    "coordinates": [
      -52.821823,
      -31.861731
    ]
  },
  {
    "name": "stop name",
    "address": "nowhere",
    "exits": "1",
    "coordinates": [
      -54.106236,
      -31.331718
    ]
  },
  {
    "name": "stop name",
    "address": "nowhere",
    "exits": "1",
    "coordinates": [
      -52.357408,
      -31.756258
    ]
  },
  {
    "name": "stop name",
    "address": "nowhere",
    "exits": "1",
    "coordinates": [
      -52.677099,
      -31.398296
    ]
  },
  {
    "name": "stop name",
    "address": "nowhere",
    "exits": "1",
    "coordinates": [
      -52.775673,
      -31.358005
    ]
  },
  {
    "name": "stop name",
    "address": "nowhere",
    "exits": "1",
    "coordinates": [
      -52.935271,
      -31.334761
    ]
  },
  {
    "name": "stop name",
    "address": "nowhere",
    "exits": "1",
    "coordinates": [
      -53.115695,
      -31.378834
    ]
  },
  {
    "name": "stop name",
    "address": "nowhere",
    "exits": "1",
    "coordinates": [
      -53.104176,
      -31.448516
    ]
  },
  {
    "name": "stop name",
    "address": "nowhere",
    "exits": "1",
    "coordinates": [
      -53.395237,
      -32.025773
    ]
  },
  {
    "name": "stop name",
    "address": "nowhere",
    "exits": "1",
    "coordinates": [
      -52.821823,
      -31.861731
    ]
  },
  {
    "name": "stop name",
    "address": "nowhere",
    "exits": "1",
    "coordinates": [
      -53.376976,
      -32.566474
    ]
  },
  {
    "name": "stop name",
    "address": "nowhere",
    "exits": "1",
    "coordinates": [
      -52.821823,
      -31.861731
    ]
  },
  {
    "name": "stop name",
    "address": "nowhere",
    "exits": "1",
    "coordinates": [
      -53.585572,
      -31.732389
    ]
  },
  {
    "name": "stop name",
    "address": "nowhere",
    "exits": "1",
    "coordinates": [
      -53.395237,
      -32.025773
    ]
  },
  {
    "name": "stop name",
    "address": "nowhere",
    "exits": "1",
    "coordinates": [
      -53.38228,
      -31.578983
    ]
  },
  {
    "name": "stop name",
    "address": "nowhere",
    "exits": "1",
    "coordinates": [
      -53.585572,
      -31.732389
    ]
  },
  {
    "name": "stop name",
    "address": "nowhere",
    "exits": "1",
    "coordinates": [
      -53.38228,
      -31.578983
    ]
  },
  {
    "name": "stop name",
    "address": "nowhere",
    "exits": "1",
    "coordinates": [
      -53.585572,
      -31.732389
    ]
  },
  {
    "name": "stop name",
    "address": "nowhere",
    "exits": "1",
    "coordinates": [
      -53.395237,
      -32.025773
    ]
  },
  {
    "name": "stop name",
    "address": "nowhere",
    "exits": "1",
    "coordinates": [
      -53.376976,
      -32.566474
    ]
  },
  {
    "name": "stop name",
    "address": "nowhere",
    "exits": "1",
    "coordinates": [
      -53.104176,
      -31.448516
    ]
  },
  {
    "name": "stop name",
    "address": "nowhere",
    "exits": "1",
    "coordinates": [
      -52.815038,
      -31.854553
    ]
  },
  {
    "name": "stop name",
    "address": "nowhere",
    "exits": "1",
    "coordinates": [
      -52.815038,
      -31.854553
    ]
  },
  {
    "name": "stop name",
    "address": "nowhere",
    "exits": "1",
    "coordinates": [
      -52.821823,
      -31.861731
    ]
  },
  {
    "name": "stop name",
    "address": "nowhere",
    "exits": "1",
    "coordinates": [
      -53.086325,
      -32.238502
    ]
  },
  {
    "name": "stop name",
    "address": "nowhere",
    "exits": "1",
    "coordinates": [
      -52.357408,
      -31.756258
    ]
  },
  {
    "name": "stop name",
    "address": "nowhere",
    "exits": "1",
    "coordinates": [
      -52.677099,
      -31.398296
    ]
  },
  {
    "name": "stop name",
    "address": "nowhere",
    "exits": "1",
    "coordinates": [
      -52.357408,
      -31.756258
    ]
  },
  {
    "name": "stop name",
    "address": "nowhere",
    "exits": "1",
    "coordinates": [
      -53.395237,
      -32.025773
    ]
  },
  {
    "name": "stop name",
    "address": "nowhere",
    "exits": "1",
    "coordinates": [
      -53.086325,
      -32.238502
    ]
  },
  {
    "name": "stop name",
    "address": "nowhere",
    "exits": "1",
    "coordinates": [
      -53.376976,
      -32.566474
    ]
  },
  {
    "name": "stop name",
    "address": "nowhere",
    "exits": "1",
    "coordinates": [
      -53.086325,
      -32.238502
    ]
  },
  {
    "name": "stop name",
    "address": "nowhere",
    "exits": "1",
    "coordinates": [
      -53.376976,
      -32.566474
    ]
  },
  {
    "name": "stop name",
    "address": "nowhere",
    "exits": "1",
    "coordinates": [
      -52.357408,
      -31.756258
    ]
  },
  {
    "name": "stop name",
    "address": "nowhere",
    "exits": "1",
    "coordinates": [
      -52.821823,
      -31.861731
    ]
  },
  {
    "name": "stop name",
    "address": "nowhere",
    "exits": "1",
    "coordinates": [
      -52.357408,
      -31.756258
    ]
  },
  {
    "name": "stop name",
    "address": "nowhere",
    "exits": "1",
    "coordinates": [
      -52.821823,
      -31.861731
    ]
  },
  {
    "name": "stop name",
    "address": "nowhere",
    "exits": "1",
    "coordinates": [
      -54.106236,
      -31.331718
    ]
  },
  {
    "name": "stop name",
    "address": "nowhere",
    "exits": "1",
    "coordinates": [
      -52.357408,
      -31.756258
    ]
  },
  {
    "name": "stop name",
    "address": "nowhere",
    "exits": "1",
    "coordinates": [
      -52.821823,
      -31.861731
    ]
  },
  {
    "name": "stop name",
    "address": "nowhere",
    "exits": "1",
    "coordinates": [
      -53.104176,
      -31.448516
    ]
  },
  {
    "name": "stop name",
    "address": "nowhere",
    "exits": "1",
    "coordinates": [
      -53.104176,
      -31.448516
    ]
  },
  {
    "name": "stop name",
    "address": "nowhere",
    "exits": "1",
    "coordinates": [
      -53.141566,
      -31.449274
    ]
  },
  {
    "name": "stop name",
    "address": "nowhere",
    "exits": "1",
    "coordinates": [
      -53.172669,
      -31.442541
    ]
  },
  {
    "name": "stop name",
    "address": "nowhere",
    "exits": "1",
    "coordinates": [
      -53.25551,
      -31.53803
    ]
  },
  {
    "name": "stop name",
    "address": "nowhere",
    "exits": "1",
    "coordinates": [
      -53.38228,
      -31.578983
    ]
  },
  {
    "name": "stop name",
    "address": "nowhere",
    "exits": "1",
    "coordinates": [
      -53.104176,
      -31.448516
    ]
  },
  {
    "name": "stop name",
    "address": "nowhere",
    "exits": "1",
    "coordinates": [
      -52.357408,
      -31.756258
    ]
  },
  {
    "name": "stop name",
    "address": "nowhere",
    "exits": "1",
    "coordinates": [
      -52.815038,
      -31.854553
    ]
  },
  {
    "name": "stop name",
    "address": "nowhere",
    "exits": "1",
    "coordinates": [
      -52.675004,
      -31.851127
    ]
  },
  {
    "name": "stop name",
    "address": "nowhere",
    "exits": "1",
    "coordinates": [
      -52.643772,
      -31.885771
    ]
  },
  {
    "name": "stop name",
    "address": "nowhere",
    "exits": "1",
    "coordinates": [
      -52.357408,
      -31.756258
    ]
  }
]